City_ID,City,Lat,Lng,Max Temp,Humidity,Cloudiness,Wind Speed,Country,Date
0,naron,43.5167,-8.1528,289.62,70,100,2.98,ES,1670423173
1,panguna,-6.3164,155.4848,293.1,96,90,0.79,PG,1670423173
2,ribeira grande,38.5167,-28.7,288.02,82,40,12.35,PT,1670423174
3,hilo,19.7297,-155.09,295.53,92,75,2.57,US,1670423174
4,yumen,40.2833,97.2,264.22,81,100,2.22,CN,1670423174
5,chokurdakh,70.6333,147.9167,253.11,99,100,1.22,RU,1670423174
6,mount isa,-20.7333,139.5,300.02,34,9,0.0,AU,1670423175
7,puerto ayora,-0.7393,-90.3518,296.13,91,72,2.24,EC,1670423175
8,punta arenas,-53.15,-70.9167,282.21,37,40,6.69,CL,1670422887
9,ushuaia,-54.8,-68.3,280.94,49,75,7.72,AR,1670423175
10,butaritari,3.0707,172.7902,299.86,81,85,5.91,KI,1670423176
11,nelson bay,-32.7167,152.15,294.31,65,100,8.49,AU,1670423176
12,arraial do cabo,-22.9661,-42.0278,301.13,78,75,2.57,BR,1670423176
13,klaksvik,62.2266,-6.589,272.66,74,100,13.49,FO,1670423177
14,nanortalik,60.1432,-45.2371,271.58,87,24,3.28,GL,1670423177
15,sinnamary,5.3833,-52.95,301.85,69,14,3.58,GF,1670423177
16,rikitea,-23.1203,-134.9692,297.05,81,23,7.59,PF,1670423178
17,bengkulu,-3.8004,102.2655,297.85,91,100,4.32,ID,1670423178
18,esperance,-33.8667,121.9,288.35,67,0,10.27,AU,1670423178
19,new norfolk,-42.7826,147.0587,283.1,74,94,1.74,AU,1670423179
20,provideniya,64.3833,-173.3,267.34,74,91,6.34,RU,1670423179
21,hearst,49.6835,-83.6665,257.29,93,100,4.31,CA,1670423179
22,kutum,14.2,24.6667,296.2,17,5,4.34,SD,1670423180
23,mecca,21.4267,39.8261,301.33,43,79,3.06,SA,1670422966
24,port alfred,-33.5906,26.891,297.14,79,0,3.13,ZA,1670423180
25,yellowknife,62.456,-114.3525,244.57,76,75,3.6,CA,1670423144
26,omboue,-1.5746,9.2618,300.96,70,95,3.05,GA,1670423180
27,muroto,33.2833,134.15,285.13,49,0,3.29,JP,1670423181
28,lixourion,38.2019,20.4314,290.15,72,40,5.14,GR,1670423181
29,altamira,-3.2033,-52.2064,304.2,66,75,2.06,BR,1670423181
30,polunochnoye,60.8697,60.4153,257.51,83,89,2.14,RU,1670423182
31,umm lajj,25.0213,37.2685,297.97,60,0,6.74,SA,1670423182
32,victoria,22.2855,114.1577,292.77,78,12,2.68,HK,1670422900
33,cape town,-33.9258,18.4232,299.32,50,20,4.63,ZA,1670422940
34,kapaa,22.0752,-159.319,299.33,84,100,7.2,US,1670423183
35,hobart,-42.8794,147.3294,283.29,88,75,3.09,AU,1670423183
36,busselton,-33.65,115.3333,289.03,76,89,4.94,AU,1670423183
37,avarua,-21.2078,-159.775,298.18,88,75,5.14,CK,1670423184
38,cherskiy,68.75,161.3,247.59,99,100,3.39,RU,1670423184
39,rusne,55.2964,21.3758,276.72,82,100,4.53,LT,1670423184
40,machiques,10.0644,-72.545,298.05,57,7,0.92,VE,1670423185
41,saint-philippe,-21.3585,55.7679,298.92,84,36,6.3,RE,1670423185
42,berlevag,70.8578,29.0864,275.15,87,75,5.14,NO,1670423185
43,ilulissat,69.2167,-51.1,275.16,51,75,7.2,GL,1670423186
44,codrington,-38.2667,141.9667,284.33,60,54,9.35,AU,1670423186
45,umm kaddadah,13.6017,26.6876,299.4,14,57,7.44,SD,1670423186
46,sitka,57.0531,-135.33,280.09,76,100,9.77,US,1670423187
47,camocim,-2.9022,-40.8411,305.54,47,10,5.25,BR,1670423187
48,mahebourg,-20.4081,57.7,300.31,78,75,5.66,MU,1670422893
49,cidreira,-30.1811,-50.2056,296.25,70,0,3.54,BR,1670423187
50,oistins,13.0667,-59.5333,302.2,65,40,1.03,BB,1670423188
51,mataura,-46.1927,168.8643,281.07,91,97,1.64,NZ,1670423188
52,carnarvon,-24.8667,113.6333,294.67,70,61,6.61,AU,1670423188
53,asfi,32.2994,-9.2372,292.51,70,100,9.22,MA,1670423188
54,atuona,-9.8,-139.0333,298.49,75,50,8.4,PF,1670423189
55,tuatapere,-46.1333,167.6833,284.29,81,100,1.76,NZ,1670423189
56,bluff,-46.6,168.3333,284.72,80,100,3.62,NZ,1670423189
57,jelgava,56.65,23.7128,270.93,96,100,4.48,LV,1670423190
58,talara,-4.5772,-81.2719,295.57,68,0,8.75,PE,1670423190
59,pointe michel,15.25,-61.3833,302.67,65,20,1.03,DM,1670423190
60,belmonte,-15.8631,-38.8828,300.64,69,71,2.03,BR,1670423190
61,tiksi,71.6872,128.8694,247.27,98,100,2.44,RU,1670423191
62,thompson,55.7435,-97.8558,242.24,76,40,4.12,CA,1670423191
63,hermanus,-34.4187,19.2345,295.82,65,0,6.75,ZA,1670423191
64,umuarama,-23.7664,-53.325,301.51,66,25,2.2,BR,1670423101
65,floro,61.5996,5.0328,271.13,93,20,2.06,NO,1670423192
66,kankakee,41.15,-87.8667,277.14,95,100,0.0,US,1670422896
67,ancud,-41.8697,-73.8203,287.07,94,100,12.62,CL,1670423192
68,pilot butte,50.4668,-104.4178,244.63,68,40,9.26,CA,1670423192
69,maluso,6.543,121.8753,299.5,84,90,0.63,PH,1670423193
70,barrow,71.2906,-156.7887,262.16,85,100,9.77,US,1670422972
71,bethel,41.3712,-73.414,287.22,89,100,0.0,US,1670423193
72,werda,-25.2667,23.2833,297.1,50,96,7.12,BW,1670423193
73,souillac,-20.5167,57.5167,300.36,78,75,5.66,MU,1670423194
74,sawang daen din,17.4753,103.4575,295.47,99,37,4.54,TH,1670423194
75,macia,-25.0269,33.0989,303.31,56,95,4.14,MZ,1670423194
76,nishihara,26.1842,127.7558,292.75,61,40,6.17,JP,1670423195
77,shimoda,34.6667,138.95,280.99,68,14,11.49,JP,1670423195
78,dikson,73.5069,80.5464,250.2,95,99,6.88,RU,1670423195
79,virovitica,45.8319,17.3839,278.02,86,100,1.6,HR,1670423196
80,esil,51.9556,66.4042,250.72,93,52,2.17,KZ,1670423196
81,bredasdorp,-34.5322,20.0403,297.97,38,0,8.19,ZA,1670423196
82,shwebo,22.5667,95.7,294.92,62,0,2.53,MM,1670423196
83,nabire,-3.3667,135.4833,298.54,84,100,1.31,ID,1670423197
84,xiaoweizhai,26.1903,107.5125,280.74,73,90,1.15,CN,1670423197
85,saravan,39.7196,45.6483,271.06,84,99,1.11,AM,1670423197
86,jamestown,42.097,-79.2353,280.95,77,100,0.89,US,1670423074
87,batemans bay,-35.7167,150.1833,287.53,94,60,2.39,AU,1670423198
88,albany,42.6001,-73.9662,286.72,93,100,1.82,US,1670422913
89,takoradi,4.8845,-1.7554,303.12,64,100,4.74,GH,1670423198
90,buchanan,5.8808,-10.0467,300.47,77,96,3.1,LR,1670423199
91,kavieng,-2.5744,150.7967,300.83,76,100,4.76,PG,1670423199
92,ust-kut,56.7938,105.7672,260.71,91,100,5.41,RU,1670423199
93,luderitz,-26.6481,15.1594,293.15,61,0,9.98,NA,1670423200
94,namibe,-15.1961,12.1522,296.36,71,15,4.97,AO,1670423200
95,pulawy,51.4166,21.9694,275.21,96,100,2.24,PL,1670423200
96,avera,33.194,-82.5271,290.58,90,24,2.19,US,1670423201
97,tasiilaq,65.6145,-37.6368,269.24,84,75,2.07,GL,1670423201
98,macapa,0.0389,-51.0664,304.14,74,75,4.63,BR,1670423201
99,viesca,25.35,-102.8,290.56,56,6,0.61,MX,1670423201
100,lavrentiya,65.5833,-171.0,267.47,75,100,5.21,RU,1670423202
101,itoman,26.1247,127.6694,293.16,60,73,6.17,JP,1670423202
102,matagami,49.7502,-77.6328,264.21,92,100,1.03,CA,1670423202
103,spirit river,55.7833,-118.8361,254.39,95,83,0.29,CA,1670423203
104,zurrieq,35.8311,14.4742,291.88,82,20,2.57,MT,1670423203
105,te anau,-45.4167,167.7167,283.55,90,91,0.78,NZ,1670422962
106,geraldton,-28.7667,114.6,294.38,78,100,3.6,AU,1670423203
107,castro,-24.7911,-50.0119,298.72,63,43,2.79,BR,1670423204
108,lorengau,-2.0226,147.2712,299.74,82,99,3.57,PG,1670423204
109,vila franca do campo,37.7167,-25.4333,288.38,79,99,12.15,PT,1670423204
110,colquiri,-17.4167,-67.1333,275.58,86,100,1.75,BO,1670423205
111,kasongo-lunda,-6.4667,16.8167,298.75,65,100,3.14,CD,1670423205
112,vao,-22.6667,167.4833,297.6,86,96,3.44,NC,1670423205
113,mar del plata,-38.0023,-57.5575,298.61,75,0,8.75,AR,1670423206
114,swedru,5.5371,-0.6998,306.3,43,24,0.83,GH,1670423206
115,kruisfontein,-34.0033,24.7314,296.43,55,0,8.16,ZA,1670423206
116,nikolskoye,59.7035,30.7861,267.09,81,100,5.27,RU,1670423206
117,norman wells,65.282,-126.8329,235.17,67,20,2.57,CA,1670423207
118,henties bay,-22.116,14.2845,290.57,73,3,5.95,NA,1670423207
119,rawson,-43.3002,-65.1023,292.47,54,100,3.69,AR,1670423207
120,pizhanka,57.4604,48.542,261.34,90,98,4.24,RU,1670423208
121,cabo san lucas,22.8909,-109.9124,292.93,74,14,0.96,MX,1670422915
122,hirara,24.8,125.2833,295.9,72,96,13.16,JP,1670423208
123,asau,46.4333,26.4,276.66,86,100,1.82,RO,1670423208
124,saskylakh,71.9167,114.0833,232.21,100,39,1.83,RU,1670423208
125,comodoro rivadavia,-45.8667,-67.5,288.07,63,100,3.6,AR,1670423209
126,kavaratti,10.5669,72.642,300.97,72,100,2.81,IN,1670423209
127,road town,18.4167,-64.6167,301.2,65,40,3.6,VG,1670423209
128,paamiut,61.994,-49.6678,270.7,79,100,4.13,GL,1670423210
129,sao filipe,14.8961,-24.4956,297.28,74,4,2.8,CV,1670423210
130,belize,17.25,-88.75,296.27,94,15,0.5,BZ,1670422895
131,barra do garcas,-15.89,-52.2567,302.47,70,0,0.0,BR,1670423210
132,haukipudas,65.1765,25.3523,266.01,100,77,3.99,FI,1670423211
133,richards bay,-28.783,32.0377,302.32,62,41,7.4,ZA,1670423211
134,nantucket,41.2835,-70.0995,285.23,98,100,3.6,US,1670423192
135,panaba,21.2833,-88.2667,298.04,70,0,3.2,MX,1670423211
136,kununurra,-15.7667,128.7333,301.14,69,75,3.09,AU,1670423116
137,faanui,-16.4833,-151.75,299.65,78,95,7.46,PF,1670423212
138,port-cartier,50.0334,-66.8654,275.27,96,100,4.88,CA,1670423212
139,east london,-33.0153,27.9116,299.67,65,0,6.17,ZA,1670423212
140,vaini,-21.2,-175.2,297.24,94,20,1.03,TO,1670423213
141,adrar,20.5022,-10.0711,304.8,25,7,2.57,MR,1670423213
142,santa rosa,14.3122,121.1114,301.14,79,88,3.15,PH,1670423213
143,pevek,69.7008,170.3133,252.29,96,100,4.51,RU,1670423214
144,okha,53.5739,142.9478,257.67,90,96,5.87,RU,1670423214
145,casablanca,33.5928,-7.6192,295.16,60,75,4.12,MA,1670423060
146,kahului,20.8947,-156.47,298.06,77,0,9.26,US,1670423214
147,tucumcari,35.1717,-103.725,279.06,70,0,4.12,US,1670423178
148,aller,43.1187,-5.5839,282.95,70,90,0.36,ES,1670423215
149,upernavik,72.7868,-56.1549,267.78,84,94,3.59,GL,1670423215
150,katakwi,1.8911,33.9661,302.67,30,96,2.67,UG,1670423215
151,jalu,29.0331,21.5482,297.54,32,0,1.66,LY,1670423216
152,kishi,9.0833,3.85,308.49,12,3,2.55,NG,1670423216
153,cabedelo,-6.9811,-34.8339,303.52,65,66,6.49,BR,1670423216
154,bubaque,11.2833,-15.8333,300.17,54,2,2.06,GW,1670423217
155,longyearbyen,78.2186,15.6401,265.06,67,75,10.29,SJ,1670423217
156,sambo creek,15.8167,-86.6833,296.3,88,75,1.54,HN,1670423217
157,mayo,38.8876,-76.5119,286.15,95,100,0.45,US,1670423218
158,lompoc,34.6391,-120.4579,279.03,97,20,3.09,US,1670423218
159,puerto escondido,15.85,-97.0667,296.61,88,0,2.57,MX,1670423218
160,fortuna,40.5982,-124.1573,276.44,97,75,4.63,US,1670423218
161,airai,-8.9266,125.4092,289.02,83,83,0.71,TL,1670423219
162,vryburg,-26.9566,24.7284,294.19,57,83,8.13,ZA,1670423219
163,egvekinot,66.3167,-179.1667,251.66,100,99,1.67,RU,1670423219
164,abu kamal,34.4506,40.9171,290.22,46,12,2.57,SY,1670423220
165,freetown,8.484,-13.2299,303.99,70,40,4.12,SL,1670423220
166,lebu,-37.6167,-73.65,290.25,80,100,5.69,CL,1670423220
167,tuktoyaktuk,69.4541,-133.0374,249.15,70,100,5.14,CA,1670423220
168,naberera,-4.2,36.9333,300.12,37,67,6.15,TZ,1670423221
169,maarianhamina,60.0973,19.9348,268.07,93,20,1.54,AX,1670423221
170,ambikapur,23.1167,83.2,286.34,41,58,1.23,IN,1670423221
171,sunndalsora,62.6754,8.5515,267.06,91,100,4.12,NO,1670423222
172,lanxi,29.2195,119.477,283.01,91,100,1.32,CN,1670423222
173,georgetown,5.4112,100.3354,300.5,89,20,1.03,MY,1670423222
174,buique,-8.6231,-37.1558,301.36,33,6,3.57,BR,1670423223
175,talaya,61.3833,152.75,242.41,100,93,0.39,RU,1670423223
176,ahuimanu,21.4447,-157.8378,297.99,80,40,6.17,US,1670423223
177,camacha,33.0833,-16.3333,292.83,68,40,7.2,PT,1670423224
178,chuy,-33.6971,-53.4616,300.22,45,0,2.68,UY,1670423224
179,abu samrah,35.3029,37.1841,288.49,56,100,2.59,SY,1670423224
180,marawi,7.9986,124.2928,293.39,97,55,0.64,PH,1670423225
181,saint anthony,45.0205,-93.218,265.93,77,100,4.63,US,1670423225
182,dingle,10.9995,122.6711,296.24,88,73,2.97,PH,1670423225
183,kargasok,59.0556,80.8572,258.06,93,100,4.63,RU,1670423225
184,walvis bay,-22.9575,14.5053,295.68,49,0,5.14,NA,1670423226
185,islamkot,24.6997,70.177,296.0,16,0,3.48,PK,1670423226
186,christchurch,-43.5333,172.6333,284.26,70,20,8.23,NZ,1670423226
187,saint george,37.1041,-113.5841,276.48,87,75,0.0,US,1670423029
188,pisco,-13.7,-76.2167,293.18,83,75,4.12,PE,1670423116
189,zhangjiakou,40.81,114.8794,270.4,28,97,1.5,CN,1670423227
190,balkanabat,39.5108,54.3671,276.93,42,73,2.87,TM,1670423227
191,inyonga,-6.7167,32.0667,301.43,46,46,0.33,TZ,1670423228
192,polson,47.6936,-114.1632,271.2,93,92,1.88,US,1670423228
193,ponta do sol,32.6667,-17.1,294.1,85,56,7.77,PT,1670423228
194,katherine,-14.4667,132.2667,304.33,42,75,2.06,AU,1670423228
195,aksarayskiy,46.7924,48.0119,267.06,61,97,5.92,RU,1670423229
196,mahalapye,-23.1041,26.8142,299.9,51,100,4.24,BW,1670423229
197,jian,27.1172,114.9793,283.22,84,89,1.23,CN,1670423229
198,isangel,-19.55,169.2667,299.32,81,99,0.39,VU,1670423230
199,alofi,-19.0595,-169.9187,297.09,94,100,1.54,NU,1670423230
200,porto-vecchio,41.591,9.2795,289.96,55,0,6.69,FR,1670423230
201,srednekolymsk,67.45,153.6833,243.56,90,100,5.22,RU,1670423231
202,guerrero negro,27.9769,-114.0611,287.63,77,2,4.85,MX,1670423231
203,husavik,66.0449,-17.3389,269.75,88,100,1.19,IS,1670423231
204,mirnyy,62.5353,113.9611,258.84,77,100,4.02,RU,1670423232
205,bambous virieux,-20.3428,57.7575,300.29,78,75,5.66,MU,1670423232
206,alice springs,-23.7,133.8833,300.9,30,25,4.12,AU,1670423232
207,krasnoturansk,54.3186,91.5639,249.37,98,24,0.77,RU,1670423232
208,aranos,-24.1333,19.1167,309.05,6,2,6.29,NA,1670423233
209,college place,46.0493,-118.3883,270.25,91,100,0.45,US,1670423233
210,pangnirtung,66.1451,-65.7125,263.15,73,40,4.12,CA,1670423233
211,lianzhou,24.7811,112.3825,281.76,93,25,1.53,CN,1670423234
212,shiyan,32.6475,110.7781,279.19,62,8,0.09,CN,1670423234
213,kaitangata,-46.2817,169.8464,282.27,85,100,4.17,NZ,1670423234
214,sola,-13.8833,167.55,300.68,74,81,3.36,VU,1670423235
215,evanston,42.0411,-87.6901,277.15,94,100,1.54,US,1670423235
216,port elizabeth,-33.918,25.5701,295.55,79,40,10.29,ZA,1670423235
217,ponta delgada,37.7333,-25.6667,288.55,82,75,14.92,PT,1670423236
218,wichian buri,15.6578,101.106,297.49,71,22,1.98,TH,1670423236
219,glendive,47.1053,-104.7125,251.75,83,20,2.68,US,1670423236
220,talcahuano,-36.7167,-73.1167,288.97,94,100,4.63,CL,1670423237
221,merauke,-8.4667,140.3333,299.22,76,91,5.86,ID,1670423237
222,makakilo city,21.3469,-158.0858,297.33,74,0,6.17,US,1670423237
223,necochea,-38.5473,-58.7368,299.98,42,0,7.92,AR,1670423237
224,gwanda,-20.9333,29.0,302.02,43,78,5.32,ZW,1670423238
225,anadyr,64.75,177.4833,260.43,66,40,1.0,RU,1670423238
226,port-gentil,-0.7193,8.7815,302.13,74,40,3.6,GA,1670423239
227,puerto carreno,6.189,-67.4859,300.14,69,100,4.63,CO,1670423239
228,hamilton,39.1834,-84.5333,284.84,97,100,2.57,US,1670423196
229,biak,-0.9131,122.8766,298.41,72,90,1.31,ID,1670423239
230,saint-augustin,51.226,-58.6502,271.26,87,100,2.21,CA,1670423240
231,korgen,66.0771,13.8153,270.22,86,100,3.31,NO,1670423240
232,kulhudhuffushi,6.6221,73.07,300.29,75,100,2.25,MV,1670423240
233,grand gaube,-20.0064,57.6608,300.37,72,1,6.26,MU,1670423240
234,vytegra,61.0064,36.4481,267.18,76,97,5.1,RU,1670423241
235,oussouye,12.485,-16.5469,308.24,29,0,3.1,SN,1670423241
236,kharhial,20.2833,82.7667,290.28,46,54,1.28,IN,1670423241
237,sarh,9.1429,18.3923,308.82,12,1,2.61,TD,1670423242
238,haines junction,60.7522,-137.5108,260.12,85,100,1.54,CA,1670423242
239,vestmannaeyjar,63.4427,-20.2734,274.7,86,75,4.63,IS,1670423242
240,kenora,49.8167,-94.4337,245.8,76,20,3.09,CA,1670423243
241,kodiak,57.79,-152.4072,273.88,55,0,9.26,US,1670423243
242,nago,26.5881,127.9761,291.39,67,84,8.05,JP,1670423206
243,lower hutt,-41.2167,174.9167,285.1,77,100,3.09,NZ,1670423243
244,lima,-12.0432,-77.0282,296.98,70,100,4.63,PE,1670422589
245,serenje,-13.2325,30.2352,298.29,49,97,0.88,ZM,1670423244
246,yulara,-25.2406,130.9889,302.51,30,98,8.22,AU,1670423244
247,conway,35.0887,-92.4421,288.63,95,75,0.45,US,1670423176
248,bairiki,1.3292,172.9752,300.15,89,20,4.63,KI,1670423244
249,gobabis,-22.45,18.9667,307.09,7,3,8.49,NA,1670423245
250,qaanaaq,77.484,-69.3632,264.96,77,48,6.57,GL,1670423245
251,torbay,47.6666,-52.7314,276.8,97,100,4.12,CA,1670423245
252,wewak,-3.5534,143.6268,298.82,85,100,1.2,PG,1670423246
253,karachev,53.1229,34.9852,266.64,75,94,7.05,RU,1670423246
254,lao cai,22.4833,103.95,289.38,93,100,0.37,VN,1670423246
255,anderson,34.5334,-82.6499,286.02,99,100,1.54,US,1670423002
256,silver city,32.7701,-108.2803,280.17,84,0,3.09,US,1670423247
257,usak,38.5,29.4167,282.14,63,100,1.3,TR,1670423247
258,rovaniemi,66.5,25.7167,268.82,100,100,5.14,FI,1670423247
259,jensen beach,27.2545,-80.2298,299.85,75,40,3.6,US,1670423248
260,labuhan,-6.8844,112.2051,300.9,73,100,1.52,ID,1670423248
261,grindavik,63.8424,-22.4338,273.41,80,20,3.6,IS,1670423248
262,chapais,49.7834,-74.8492,271.03,98,100,1.56,CA,1670423248
263,yarensk,62.1675,49.0916,266.87,79,100,4.04,RU,1670423249
264,erenhot,43.6475,111.9767,263.2,52,19,2.71,CN,1670423249
265,emerald,-23.5333,148.1667,302.09,38,0,6.61,AU,1670423185
266,dong hoi,17.4833,106.6,293.35,92,99,4.45,VN,1670423249
267,bure,10.7,37.0667,295.36,39,52,2.57,ET,1670423250
268,araguacu,-12.9306,-49.8264,303.85,53,96,2.64,BR,1670423025
269,santiago del estero,-27.7951,-64.2615,311.88,16,94,6.2,AR,1670423228
270,latung,5.5,120.8833,300.83,76,35,2.12,PH,1670423250
271,monywa,22.1167,95.1333,296.54,57,1,1.11,MM,1670423251
272,zhigansk,66.7697,123.3711,246.17,98,100,1.84,RU,1670423251
273,takhli,15.2634,100.3438,297.5,76,11,2.53,TH,1670423251
274,quba,41.3626,48.5152,272.74,97,85,0.69,AZ,1670423251
275,jeremoabo,-10.075,-38.4808,303.09,47,26,4.07,BR,1670423252
276,tilichiki,60.4667,166.1,257.12,97,65,2.36,RU,1670423252
277,trairi,-3.2778,-39.2689,305.09,50,92,7.21,BR,1670423033
278,yeppoon,-23.1333,150.7333,297.03,75,0,3.22,AU,1670423252
279,iglesias,39.3114,8.535,290.83,69,6,2.76,IT,1670423253
280,marsaxlokk,35.8419,14.5431,292.49,82,20,2.57,MT,1670423106
281,mixquiahuala,20.2333,-99.2167,286.03,80,0,0.45,MX,1670423253
282,skibbereen,51.55,-9.2667,279.88,63,13,4.7,IE,1670423253
283,pundaguitan,6.3711,126.1689,300.95,76,41,3.35,PH,1670423254
284,fuxin,42.0156,121.6589,269.77,39,0,1.98,CN,1670423254
285,luwingu,-10.2621,29.9271,298.43,51,99,0.97,ZM,1670423254
286,touros,-5.1989,-35.4608,303.36,59,52,7.51,BR,1670423255
287,riviere-au-renard,48.9957,-64.3971,275.31,98,100,5.27,CA,1670423255
288,san cristobal,7.7669,-72.225,294.25,63,20,1.5,VE,1670423246
289,chimbote,-9.0853,-78.5783,292.64,79,50,2.44,PE,1670423072
290,anshun,26.25,105.9333,278.82,82,100,1.52,CN,1670423255
291,crotone,39.0851,17.1178,291.12,82,40,2.57,IT,1670423256
292,wuwei,37.9281,102.6414,269.17,59,91,0.63,CN,1670423256
293,bantou,26.2151,117.4893,285.53,92,93,1.11,CN,1670423256
294,sarkikaraagac,38.0794,31.3664,282.33,61,100,1.99,TR,1670423257
295,khuzdar,27.7384,66.6434,291.05,31,0,2.7,PK,1670423257
296,iquique,-20.2208,-70.1431,293.17,65,94,3.1,CL,1670423257
297,leczna,51.3012,22.8814,274.88,100,100,4.12,PL,1670423257
298,marystown,47.1666,-55.1483,278.18,84,4,5.36,CA,1670423258
299,carutapera,-1.195,-46.02,304.68,53,10,4.96,BR,1670423258
300,dalbandin,28.8947,64.4101,290.08,32,0,0.36,PK,1670423258
301,iqaluit,63.7506,-68.5145,260.0,66,40,1.03,CA,1670423259
302,aswan,24.0934,32.907,299.76,22,0,3.09,EG,1670423259
303,ambilobe,-13.2,49.05,301.02,69,56,2.11,MG,1670423259
304,teguldet,57.3064,88.1667,258.65,92,100,4.75,RU,1670423259
305,wanning,18.8003,110.3967,294.11,88,100,4.96,CN,1670423260
306,lahat,-3.8,103.5333,296.55,98,100,0.65,ID,1670423260
307,tailai,46.3833,123.4,259.2,85,3,2.39,CN,1670423260
308,hasaki,35.7333,140.8333,278.37,48,87,5.73,JP,1670423261
309,petauke,-14.2426,31.3253,299.42,51,86,2.17,ZM,1670423261
310,nichinan,31.6,131.3667,281.66,72,0,2.29,JP,1670423053
311,hambantota,6.1241,81.1185,298.34,100,20,0.51,LK,1670423261
312,uinskoye,56.8817,56.5813,254.75,97,86,3.4,RU,1670423262
313,kalachinsk,55.0529,74.5751,253.52,99,51,2.42,RU,1670423262
314,evansville,37.9748,-87.5558,283.25,97,100,1.54,US,1670423262
315,barpali,21.2,83.5833,291.12,36,30,0.89,IN,1670423263
316,nuuk,64.1835,-51.7216,273.49,93,100,16.46,GL,1670423263
317,arrifes,37.7667,-25.7,287.29,82,75,14.92,PT,1670423263
318,dmytrivka,45.9717,28.9864,280.39,80,100,3.01,UA,1670423264
319,mount gambier,-37.8333,140.7667,284.14,53,82,5.43,AU,1670423264
320,tucupita,9.0622,-62.051,300.87,65,96,1.66,VE,1670423264
321,airdrie,55.866,-3.9803,277.04,83,4,1.73,GB,1670423264
322,janakpur,26.7183,85.9065,291.25,56,0,1.86,NP,1670423265
323,sisimiut,66.9395,-53.6735,271.78,72,100,7.34,GL,1670423265
324,vila velha,-20.3297,-40.2925,298.12,94,100,4.12,BR,1670423018
325,kuytun,54.3419,101.5036,262.67,81,100,5.59,RU,1670423265
326,cabra,37.4725,-4.4421,289.8,50,100,2.12,ES,1670423266
327,marsa matruh,31.3525,27.2453,295.26,37,0,6.17,EG,1670423266
328,carire,-3.9506,-40.4733,307.2,28,96,3.35,BR,1670423266
329,aras,42.5617,-2.356,285.39,62,20,1.03,ES,1670423267
330,mitsamiouli,-11.3847,43.2844,300.44,74,43,2.57,KM,1670423267
331,khuzhir,53.1939,107.3397,264.7,65,100,6.74,RU,1670423267
332,raudeberg,61.9875,5.1352,273.13,55,49,0.81,NO,1670423268
333,bielsk podlaski,52.7651,23.1865,273.53,98,100,5.77,PL,1670423268
334,aykhal,66.0,111.5,245.97,100,100,2.25,RU,1670423268
335,abdanan,32.9926,47.4198,286.3,45,2,1.37,IR,1670423268
336,meulaboh,4.1363,96.1285,298.63,84,100,2.81,ID,1670423269
337,kangaatsiaq,68.3065,-53.4641,270.71,79,100,5.38,GL,1670423269
338,labuan,5.2767,115.2417,299.35,94,40,1.03,MY,1670423269
339,bathsheba,13.2167,-59.5167,302.49,80,40,1.03,BB,1670423270
340,gus-zheleznyy,55.0581,41.1656,263.63,77,4,4.34,RU,1670423270
341,nosy varika,-20.5833,48.5333,299.57,72,59,3.86,MG,1670423270
342,aripuana,-9.1667,-60.6333,303.32,60,89,1.65,BR,1670423271
343,albox,37.3886,-2.1495,291.66,57,56,1.96,ES,1670423271
344,moron de la frontera,37.1208,-5.454,287.82,83,40,2.57,ES,1670423271
345,emba,48.8264,58.1442,257.24,84,12,3.16,KZ,1670423271
346,killybegs,54.6333,-8.45,278.99,68,100,4.78,IE,1670423272
347,mayna,54.1135,47.6231,260.58,90,15,3.13,RU,1670423272
348,katsuura,35.1333,140.3,284.32,61,70,3.5,JP,1670423272
349,severo-kurilsk,50.6789,156.125,272.17,81,100,4.82,RU,1670423273
350,quelimane,-17.8786,36.8883,304.12,58,40,8.23,MZ,1670423273
351,bonavista,48.6499,-53.1147,275.76,93,100,3.87,CA,1670423273
352,hithadhoo,-0.6,73.0833,300.3,79,80,4.7,MV,1670423273
353,tocopilla,-22.092,-70.1979,294.24,69,89,2.54,CL,1670423274
354,saldanha,-33.0117,17.9442,296.18,66,0,5.18,ZA,1670423274
355,fasa,28.9383,53.6482,282.73,93,75,0.0,IR,1670423274
356,dodge city,37.7528,-100.0171,273.83,80,0,2.06,US,1670423187
357,beringovskiy,63.05,179.3167,260.78,64,0,5.33,RU,1670423275
358,puntarenas,9.9763,-84.8384,298.9,73,5,1.01,CR,1670423275
359,tazovskiy,67.4667,78.7,261.48,94,100,7.14,RU,1670423275
360,apricena,41.7839,15.4437,289.2,66,18,2.45,IT,1670423276
361,chicama,-7.8447,-79.1469,291.45,71,75,2.69,PE,1670423276
362,aberfoyle,-30.2667,152.0167,284.54,93,71,2.79,AU,1670423276
363,kamaishi,39.2667,141.8833,277.68,86,94,2.26,JP,1670423277
364,zheleznodorozhnyy,55.7503,38.0042,263.95,81,7,5.8,RU,1670423277
365,sampit,-2.5333,112.95,296.87,97,74,1.31,ID,1670423277
366,ayan,56.45,138.1667,252.65,69,45,5.07,RU,1670423277
367,sao gabriel da cachoeira,-0.1303,-67.0892,300.04,83,75,2.06,BR,1670423278
368,aklavik,68.2191,-135.0107,248.15,70,75,6.17,CA,1670423278
369,salalah,17.0151,54.0924,300.2,65,40,2.57,OM,1670423278
370,bud,39.447,-86.1758,281.9,98,100,1.72,US,1670423279
371,bandundu,-3.3167,17.3667,296.37,89,100,3.14,CD,1670423279
372,los alamos,35.8881,-106.307,276.07,82,100,0.45,US,1670423279
373,namatanai,-3.6667,152.4333,299.39,81,96,2.81,PG,1670423280
374,seia,40.4151,-7.7086,288.06,66,100,0.45,PT,1670423036
375,skegness,53.1436,0.3363,278.74,79,65,7.3,GB,1670423280
376,san quintin,30.4833,-115.95,285.37,80,16,2.86,MX,1670423280
377,tabou,4.423,-7.3528,300.99,76,71,2.7,CI,1670423280
378,sawai madhopur,25.9833,76.3667,289.65,32,0,0.4,IN,1670423281
379,salmo,49.1999,-117.2689,268.42,98,99,1.29,CA,1670423281
380,marienburg,54.0359,19.0266,276.42,88,91,4.45,PL,1670423281
381,monterey,36.2505,-121.2516,278.25,1,7,0.65,US,1670423282
382,sabang,5.8933,95.3214,300.62,73,100,3.7,ID,1670423282
383,kristianstad,56.0313,14.1524,272.23,93,75,4.63,SE,1670423282
384,sherbakul,54.6316,72.3963,253.74,99,59,2.45,RU,1670423283
385,bereda,43.2686,-7.5406,287.82,96,94,1.51,ES,1670423283
386,sawtell,-30.3833,153.1,294.16,83,100,1.54,AU,1670423283
387,cozumel,20.5083,-86.9458,299.86,85,0,2.24,MX,1670423158
388,gari,59.4307,62.3497,258.5,91,16,3.59,RU,1670423284
389,trinidad,-14.8333,-64.9,302.14,74,40,2.06,BO,1670423284
390,palmer,42.1584,-72.3287,287.38,87,100,3.6,US,1670423095
391,talnakh,69.4865,88.3972,261.84,96,100,2.05,RU,1670423284
392,arman,59.7,150.1667,249.15,83,26,4.0,RU,1670423285
393,haljala,59.4336,26.2614,268.59,94,100,5.14,EE,1670423285
394,ewa beach,21.3156,-158.0072,298.12,75,0,6.17,US,1670423119
395,baykit,61.67,96.37,262.41,89,100,5.14,RU,1670423286
396,bodmin,50.4715,-4.7243,280.66,70,0,2.57,GB,1670423286
397,bermeo,43.4209,-2.7215,289.65,82,84,2.39,ES,1670423286
398,yerofey pavlovich,53.9667,121.9667,249.16,98,99,1.59,RU,1670423286
399,kiunga,-6.1219,141.2906,296.34,98,100,0.99,PG,1670423287
400,stende,57.15,22.5333,271.35,97,100,3.04,LV,1670423287
401,mandiana,10.6333,-8.6833,309.58,15,0,3.6,GN,1670423287
402,kaeo,-35.1,173.7833,288.37,95,100,9.34,NZ,1670423288
403,progreso,21.2833,-89.6667,297.1,76,0,4.03,MX,1670423288
404,narsaq,60.9167,-46.05,270.27,72,81,2.88,GL,1670423288
405,dalmau,26.0667,81.0333,291.0,35,0,2.65,IN,1670423289
406,port hardy,50.6996,-127.4199,277.25,87,100,10.8,CA,1670423289
407,faya,18.3851,42.4509,291.44,55,0,3.13,SA,1670423289
408,susuman,62.7833,148.1667,233.06,100,100,0.49,RU,1670423289
409,half moon bay,37.4636,-122.4286,282.59,91,20,0.0,US,1670423290
410,sergeyevka,53.88,67.4158,252.34,100,90,1.89,KZ,1670423290
411,zharkent,44.1628,80.0,267.21,80,100,0.89,KZ,1670423290
412,rio branco,-9.9747,-67.81,299.49,89,75,1.03,BR,1670423291
413,urumqi,43.801,87.6005,258.68,92,75,1.0,CN,1670422921
414,hervey bay,-25.2986,152.8535,297.69,87,0,6.9,AU,1670423291
415,kundla,21.3333,71.3,298.61,40,0,3.15,IN,1670423291
416,ixtapa,20.7,-105.2,296.61,94,0,2.06,MX,1670423292
417,yar-sale,66.8333,70.8333,259.84,91,100,4.82,RU,1670423292
418,atocha,-20.9333,-66.2333,284.45,53,92,4.03,BO,1670423292
419,taylor,32.3001,-99.8337,290.38,85,0,2.57,US,1670423093
420,betanzos,43.2804,-8.2147,289.66,72,0,0.45,ES,1670423293
421,goderich,43.7501,-81.7165,278.66,93,100,1.54,CA,1670423293
422,pacific grove,36.6177,-121.9166,279.06,93,0,1.54,US,1670423293
423,visavadar,21.3833,70.6833,297.98,37,0,3.0,IN,1670423294
424,bonthe,7.5264,-12.505,303.72,62,32,3.93,SL,1670423294
425,port washington,40.8257,-73.6982,287.67,90,100,1.54,US,1670423294
426,casian,11.035,119.7136,300.98,78,84,6.9,PH,1670423295
427,sechura,-5.5569,-80.8222,294.49,67,90,3.77,PE,1670423295
428,les escoumins,48.1111,-69.0236,274.79,90,100,6.83,CA,1670423295
429,nouadhibou,20.931,-17.0347,295.14,68,36,6.69,MR,1670423296
430,feijo,-8.1642,-70.3536,298.35,83,100,0.89,BR,1670423296
431,tukrah,32.5341,20.5791,295.31,50,3,4.54,LY,1670423296
432,duverge,18.3784,-71.5247,299.18,45,0,0.99,DO,1670423297
433,epernay,49.05,3.95,278.21,82,100,1.33,FR,1670423297
434,porto belo,-27.1578,-48.5531,304.7,78,25,3.55,BR,1670423297
435,miguel hidalgo,19.4225,-99.2028,286.81,50,0,2.57,MX,1670423298
436,changji,44.0167,87.3167,260.59,92,75,1.0,CN,1670423298
437,mentougou,39.9392,116.0917,266.67,22,100,1.05,CN,1670423298
438,sao fidelis,-21.6461,-41.7469,298.12,96,100,1.74,BR,1670423299
439,wanaka,-44.7,169.15,284.29,85,100,1.52,NZ,1670423299
440,upata,8.0086,-62.3989,297.7,72,97,2.27,VE,1670423299
441,berdigestyakh,62.0989,126.6992,248.51,97,100,3.24,RU,1670423300
442,sorkjosen,69.8,20.9333,269.15,93,100,1.03,NO,1670423300
443,karasjok,69.4719,25.5112,265.26,97,100,0.64,NO,1670423300
444,clyde river,70.4692,-68.5914,258.28,72,100,3.09,CA,1670423301
445,berbera,10.4396,45.0143,299.51,65,96,6.42,SO,1670423301
446,san patricio,28.017,-97.5169,294.21,94,34,1.72,US,1670423301
447,preobrazheniye,42.9019,133.9064,269.02,60,80,4.22,RU,1670423302
448,istok,42.7808,20.4875,282.96,86,90,0.45,XK,1670423302
449,porto nacional,-10.7081,-48.4172,304.15,50,10,3.04,BR,1670423302
450,lengshuitan,26.4111,111.5956,281.59,83,45,1.23,CN,1670423303
451,sobolevo,54.4299,31.8996,267.4,95,100,7.93,RU,1670423303
452,bogale,16.2833,95.4,298.46,80,91,2.01,MM,1670423303
453,front royal,38.9182,-78.1944,284.95,100,100,0.0,US,1670423304
454,ustyuzhna,58.8394,36.4321,265.53,77,86,5.42,RU,1670423304
455,puerto madryn,-42.7692,-65.0385,292.0,58,100,2.61,AR,1670423304
456,tarija,-21.5355,-64.7296,301.1,34,40,2.06,BO,1670423305
457,mogadishu,2.0371,45.3438,301.1,75,22,7.74,SO,1670423305
458,mlalo,-4.9333,38.9333,301.92,65,30,4.42,TZ,1670423305
459,vardo,70.3705,31.1107,274.2,80,100,4.05,NO,1670423305
460,kaka,37.3482,59.6143,276.98,46,7,2.71,TM,1670423306
461,madang,-5.2246,145.7966,298.2,91,100,0.87,PG,1670423306
462,bay roberts,47.5999,-53.2648,277.22,97,100,2.68,CA,1670423306
463,livramento,-3.0254,-60.1803,303.53,66,40,5.14,BR,1670423307
464,thinadhoo,0.5333,72.9333,301.24,74,23,5.35,MV,1670423307
465,wencheng,33.0559,113.7978,280.39,69,92,1.71,CN,1670423307
466,bani walid,31.7566,13.9942,298.77,19,24,6.21,LY,1670423308
467,lagoa,39.05,-27.9833,287.86,78,97,11.13,PT,1670423308
468,auki,-8.7676,160.7034,298.08,89,93,1.41,SB,1670423308
469,ahipara,-35.1667,173.1667,289.38,83,96,8.14,NZ,1670423308
470,portel,-1.9356,-50.8211,302.71,66,97,2.07,BR,1670423309
471,tual,-5.6667,132.75,301.77,71,79,2.7,ID,1670423309
472,khromtau,50.2503,58.4347,253.2,85,29,3.09,KZ,1670423309
473,marzuq,14.4,46.4667,297.69,32,6,3.17,YE,1670423310
474,tiarei,-17.5333,-149.3333,298.16,77,34,8.26,PF,1670423310
475,colares,38.7992,-9.4469,288.03,96,75,7.72,PT,1670423310
476,anchorage,61.2181,-149.9003,272.21,95,100,2.57,US,1670423105
477,marabba,12.35,32.1833,305.14,16,79,4.94,SD,1670423311
478,bosaso,11.2842,49.1816,298.97,64,63,4.42,SO,1670423242
479,tynda,55.1667,124.7167,249.23,97,100,1.35,RU,1670423311
480,isla mujeres,21.2311,-86.731,300.18,70,9,7.09,MX,1670423311
481,kashi,39.4547,75.9797,271.71,37,75,2.0,CN,1670423312
482,ukiah,39.1502,-123.2078,277.65,95,100,0.0,US,1670423312
483,socorro,31.6546,-106.3033,288.71,65,100,3.6,US,1670423312
484,pades,45.0167,22.85,277.79,96,100,0.97,RO,1670423313
485,dumai,1.6833,101.45,297.41,92,99,0.73,ID,1670423313
486,sainte-rose,16.3324,-61.6979,299.17,69,20,2.57,GP,1670423313
487,tautira,-17.7333,-149.15,299.24,78,49,8.35,PF,1670423313
488,macae,-22.3708,-41.7869,297.11,88,100,3.39,BR,1670423314
489,leirvik,59.7798,5.5005,272.94,64,20,0.51,NO,1670423314
490,marfino,55.7028,37.3822,263.8,78,0,7.0,RU,1670423314
491,port lincoln,-34.7333,135.8667,286.03,59,4,5.84,AU,1670423315
492,taman,45.2117,36.7161,279.36,73,100,2.33,RU,1670423315
493,magadan,59.5667,150.8,254.09,77,40,2.45,RU,1670423173
494,tandalti,13.0167,31.8667,304.24,15,27,5.5,SD,1670423315
495,at-bashi,41.1702,75.8106,262.66,86,93,1.11,KG,1670423315
496,arlit,18.7369,7.3853,305.08,8,7,2.3,NE,1670423316
497,periyanayakkanpalaiyam,11.15,76.9333,298.92,69,75,1.03,IN,1670423316
498,tamworth,52.634,-1.6959,277.95,85,17,1.79,GB,1670423316
499,mnogovershinnyy,53.9353,139.9242,251.81,94,36,4.05,RU,1670423317
500,kropotkin,45.4375,40.5756,275.35,65,100,6.28,RU,1670423317
501,caucaia,-3.7361,-38.6531,307.76,65,20,9.26,BR,1670423145
502,winneba,5.3511,-0.6231,303.3,63,26,4.67,GH,1670423317
503,jutai,-5.1833,-68.9,295.32,98,100,1.07,BR,1670423318
504,borovskoy,53.8,64.15,251.01,100,84,1.78,KZ,1670423318
505,port shepstone,-30.7414,30.455,298.08,81,79,9.57,ZA,1670423318
506,komsomolskiy,40.4272,71.7189,274.55,75,75,1.03,UZ,1670423319
507,troitskoye,52.9821,84.6757,249.9,100,93,0.77,RU,1670423319
508,mariakani,-3.8633,39.4736,303.2,63,85,4.29,KE,1670423319
509,markova,48.6758,24.4138,274.0,85,50,1.31,UA,1670423319
510,barra,-11.0894,-43.1417,302.2,52,6,1.86,BR,1670423320
511,carroll,39.5501,-77.0164,284.55,91,100,2.06,US,1670423320
512,shingu,33.7333,135.9833,280.72,70,5,2.79,JP,1670423320
513,muriwai beach,-36.8167,174.45,289.5,73,88,7.97,NZ,1670423321
514,laguna,38.421,-121.4238,280.94,95,20,0.0,US,1670423321
515,amapa,1.0,-52.0,303.66,55,74,2.5,BR,1670423321
516,leningradskiy,69.3833,178.4167,250.03,95,36,2.44,RU,1670423322
517,blagoyevo,63.3667,47.9167,267.03,91,100,3.88,RU,1670423322
518,jhang,33.6748,72.6963,288.49,29,12,1.45,PK,1670423322
519,flin flon,54.7682,-101.865,239.06,68,20,3.09,CA,1670423323
520,kedrovyy,56.1667,91.8167,259.38,92,100,4.96,RU,1670423323
521,mmabatho,-25.85,25.6333,298.13,57,40,5.14,ZA,1670423323
522,los llanos de aridane,28.6585,-17.9182,295.01,99,75,6.17,ES,1670423323
523,brus laguna,15.75,-84.4833,296.61,88,100,2.31,HN,1670423324
524,zhanakorgan,43.9098,67.2495,263.31,84,2,2.64,KZ,1670423324
525,otjimbingwe,-22.35,16.1333,305.93,7,0,7.02,NA,1670423324
526,bosobolo,4.1833,19.9,306.97,32,77,1.79,CD,1670423325
527,acapulco,16.8634,-99.8901,297.05,83,0,0.0,MX,1670423293
528,deputatskiy,69.3,139.9,243.71,94,100,3.23,RU,1670423325
529,santa flavia,38.085,13.5351,292.39,73,0,3.13,IT,1670423325
530,yarmouth,41.7057,-70.2286,285.23,96,100,4.12,US,1670423326
531,yatou,37.15,122.3833,276.5,56,99,1.55,CN,1670423326
532,nefteyugansk,61.0998,72.6035,257.58,93,100,5.75,RU,1670423326
533,san jorge,-31.8962,-61.8598,310.9,18,34,4.57,AR,1670423326
534,hofn,64.2539,-15.2082,272.16,64,20,8.23,IS,1670423327
535,waipawa,-41.4122,175.5153,281.42,73,100,3.9,NZ,1670423327
536,gushikawa,26.3544,127.8686,292.72,68,40,4.63,JP,1670423327
537,barreirinhas,-2.7469,-42.8264,307.7,32,6,4.52,BR,1670423328
538,khani,41.9563,42.9566,277.91,67,29,1.98,GE,1670423328
539,ahualulco,22.4,-101.1667,281.05,78,0,0.86,MX,1670423328
540,westport,41.1415,-73.3579,287.92,91,100,4.63,US,1670423329
541,maldonado,-34.6667,-54.9167,300.5,18,0,2.96,UY,1670423329
542,zhangye,38.9342,100.4517,268.42,58,79,2.12,CN,1670423329
543,newport,51.5877,-2.9984,280.25,78,97,0.99,GB,1670423329
544,hobyo,5.3505,48.5268,300.12,75,96,7.88,SO,1670423330
545,wamba,8.9333,8.6,306.71,14,100,3.63,NG,1670423330
546,camacupa,-12.0167,17.4833,296.93,60,53,2.91,AO,1670423330
547,lac du bonnet,50.2536,-96.0612,242.49,100,10,1.53,CA,1670423331
